{
"type": "FeatureCollection",
"name": "LiquorStores_4326",
"crs": { "type": "name", "properties": { "name": "urn:ogc:def:crs:OGC:1.3:CRS84" } },
"features": [
{ "type": "Feature", "properties": { "STORENUMBE": 0, "TYPE": "DABC Administration", "NAME": null, "ADDRESS": "1625 South 900 West", "CITY": "Salt Lake City", "COUNTY": "Salt Lake", "ZIP": 84104, "PHONE": "(801) 977-6800", "ONLYSTORE": "false", "LAT": 40.73478095, "LONG": -111.9166279 }, "geometry": { "type": "Point", "coordinates": [ -111.9166279024639, 40.734780955079124 ] } },
{ "type": "Feature", "properties": { "STORENUMBE": 1, "TYPE": "Liquor Store", "NAME": null, "ADDRESS": "205 West 400 South", "CITY": "Salt Lake City", "COUNTY": "Salt Lake", "ZIP": 84101, "PHONE": "(801) 533-5901", "ONLYSTORE": "false", "LAT": 40.76051357, "LONG": -111.89703092000001 }, "geometry": { "type": "Point", "coordinates": [ -111.89703091646439, 40.76051357446164 ] } },
{ "type": "Feature", "properties": { "STORENUMBE": 2, "TYPE": "Liquor Store", "NAME": null, "ADDRESS": "1154 Ashton Avenue", "CITY": "Salt Lake City", "COUNTY": "Salt Lake", "ZIP": 84106, "PHONE": "(801) 463-4939", "ONLYSTORE": "false", "LAT": 40.72040174, "LONG": -111.85802913000001 }, "geometry": { "type": "Point", "coordinates": [ -111.85802913243904, 40.720401737790091 ] } },
{ "type": "Feature", "properties": { "STORENUMBE": 3, "TYPE": "Liquor Store", "NAME": null, "ADDRESS": "3381 South Redwood Road", "CITY": "West Valley City", "COUNTY": "Salt Lake", "ZIP": 84119, "PHONE": "(801) 972-5735", "ONLYSTORE": "true", "LAT": 40.69886134, "LONG": -111.93817714 }, "geometry": { "type": "Point", "coordinates": [ -111.93817716091202, 40.69886135077379 ] } },
{ "type": "Feature", "properties": { "STORENUMBE": 4, "TYPE": "Liquor Store", "NAME": null, "ADDRESS": "1615 Foothill Blvd", "CITY": "Salt Lake City", "COUNTY": "Salt Lake", "ZIP": 84108, "PHONE": "(801) 584-8387", "ONLYSTORE": "false", "LAT": 40.73473166, "LONG": -111.82110082 }, "geometry": { "type": "Point", "coordinates": [ -111.81985327373886, 40.734324872402048 ] } },
{ "type": "Feature", "properties": { "STORENUMBE": 5, "TYPE": "Liquor Store", "NAME": null, "ADDRESS": "166 South Freedom Blvd", "CITY": "Provo", "COUNTY": "Utah", "ZIP": 84601, "PHONE": "(801) 373-6270", "ONLYSTORE": "true", "LAT": 40.23147157, "LONG": -111.66240488 }, "geometry": { "type": "Point", "coordinates": [ -111.6624048839907, 40.231471575370101 ] } },
{ "type": "Feature", "properties": { "STORENUMBE": 6, "TYPE": "Liquor Store", "NAME": null, "ADDRESS": "75 West 400 North", "CITY": "Logan", "COUNTY": "Cache", "ZIP": 84321, "PHONE": "(435) 752-4145", "ONLYSTORE": "true", "LAT": 41.7392353, "LONG": -111.83676381 }, "geometry": { "type": "Point", "coordinates": [ -111.83637521960809, 41.739380083666333 ] } },
{ "type": "Feature", "properties": { "STORENUMBE": 7, "TYPE": "Liquor Store", "NAME": null, "ADDRESS": "50 North 100 West", "CITY": "Price", "COUNTY": "Carbon", "ZIP": 84501, "PHONE": "(435) 637-2700", "ONLYSTORE": "true", "LAT": 39.60027423, "LONG": -110.81295228 }, "geometry": { "type": "Point", "coordinates": [ -110.81295228467533, 39.600274226954625 ] } },
{ "type": "Feature", "properties": { "STORENUMBE": 8, "TYPE": "Liquor Store", "NAME": null, "ADDRESS": "70 South 500 West", "CITY": "Bountiful", "COUNTY": "Davis", "ZIP": 84010, "PHONE": "(801) 295-3051", "ONLYSTORE": "true", "LAT": 40.8877742, "LONG": -111.89204848 }, "geometry": { "type": "Point", "coordinates": [ -111.89181949647669, 40.889011366584192 ] } },
{ "type": "Feature", "properties": { "STORENUMBE": 9, "TYPE": "Liquor Store", "NAME": null, "ADDRESS": "5056 South State Street", "CITY": "Murray", "COUNTY": "Salt Lake", "ZIP": 84107, "PHONE": "(801) 262-7789", "ONLYSTORE": "true", "LAT": 40.66174207, "LONG": -111.88846344 }, "geometry": { "type": "Point", "coordinates": [ -111.88867133817735, 40.661700740809067 ] } },
{ "type": "Feature", "properties": { "STORENUMBE": 10, "TYPE": "Liquor Store", "NAME": null, "ADDRESS": "433 North Main Street", "CITY": "Tooele", "COUNTY": "Tooele", "ZIP": 84074, "PHONE": "(435) 882-3036", "ONLYSTORE": "true", "LAT": 40.52820289, "LONG": -112.2984802 }, "geometry": { "type": "Point", "coordinates": [ -112.29848020331282, 40.528202888325296 ] } },
{ "type": "Feature", "properties": { "STORENUMBE": 11, "TYPE": "Liquor Store", "NAME": null, "ADDRESS": "7250 West 3500 South", "CITY": "Magna", "COUNTY": "Salt Lake", "ZIP": 84044, "PHONE": "(801) 250-2911", "ONLYSTORE": "true", "LAT": 40.69662872, "LONG": -112.06426446 }, "geometry": { "type": "Point", "coordinates": [ -112.06426445731351, 40.696628720560895 ] } },
{ "type": "Feature", "properties": { "STORENUMBE": 12, "TYPE": "Liquor Store", "NAME": null, "ADDRESS": "402 6th Avenue Suite 1", "CITY": "Salt Lake City", "COUNTY": "Salt Lake", "ZIP": 84103, "PHONE": "(801) 533-5905", "ONLYSTORE": "false", "LAT": 40.77610672, "LONG": -111.87743095 }, "geometry": { "type": "Point", "coordinates": [ -111.87672119161658, 40.775778439858072 ] } },
{ "type": "Feature", "properties": { "STORENUMBE": 13, "TYPE": "Liquor Store", "NAME": null, "ADDRESS": "1255 West North Temple", "CITY": "Salt Lake City", "COUNTY": "Salt Lake", "ZIP": 84116, "PHONE": "(801) 533-5904", "ONLYSTORE": "false", "LAT": 40.77139807, "LONG": -111.92714789 }, "geometry": { "type": "Point", "coordinates": [ -111.92770577685393, 40.771169276942956 ] } },
{ "type": "Feature", "properties": { "STORENUMBE": 14, "TYPE": "Liquor Store", "NAME": null, "ADDRESS": "63 East Miller Avenue", "CITY": "Salt Lake City", "COUNTY": "Salt Lake", "ZIP": 84115, "PHONE": "(801) 484-9721", "ONLYSTORE": "false", "LAT": 40.70192517, "LONG": -111.88935218 }, "geometry": { "type": "Point", "coordinates": [ -111.88935218139095, 40.701925170037214 ] } },
{ "type": "Feature", "properties": { "STORENUMBE": 16, "TYPE": "Liquor Store", "NAME": null, "ADDRESS": "125 West 9000 South", "CITY": "Sandy", "COUNTY": "Salt Lake", "ZIP": 84070, "PHONE": "(801) 255-8721", "ONLYSTORE": "false", "LAT": 40.58793276, "LONG": -111.89544133 }, "geometry": { "type": "Point", "coordinates": [ -111.89544133368304, 40.587932756421843 ] } },
{ "type": "Feature", "properties": { "STORENUMBE": 17, "TYPE": "Liquor Store", "NAME": null, "ADDRESS": "1688 North State Street", "CITY": "Orem", "COUNTY": "Utah", "ZIP": 84057, "PHONE": "(801) 225-0119", "ONLYSTORE": "true", "LAT": 40.32801401, "LONG": -111.70859888 }, "geometry": { "type": "Point", "coordinates": [ -111.70853653182263, 40.328321962712721 ] } },
{ "type": "Feature", "properties": { "STORENUMBE": 18, "TYPE": "Liquor Store", "NAME": null, "ADDRESS": "1580 South Providence Center Dr", "CITY": "Cedar City", "COUNTY": "Iron", "ZIP": 84720, "PHONE": "(435) 586-1644", "ONLYSTORE": "true", "LAT": 37.65301, "LONG": -113.085048 }, "geometry": { "type": "Point", "coordinates": [ -113.08534623435526, 37.653004692532782 ] } },
{ "type": "Feature", "properties": { "STORENUMBE": 19, "TYPE": "Liquor Store", "NAME": null, "ADDRESS": "3802 Pacific Avenue", "CITY": "Ogden", "COUNTY": "Weber", "ZIP": 84405, "PHONE": "(801) 392-3091", "ONLYSTORE": "false", "LAT": 41.19469094, "LONG": -111.98549543 }, "geometry": { "type": "Point", "coordinates": [ -111.98548754558375, 41.194507073591971 ] } },
{ "type": "Feature", "properties": { "STORENUMBE": 21, "TYPE": "Liquor Store", "NAME": null, "ADDRESS": "484 North Wall Avenue", "CITY": "Harrisville", "COUNTY": "Weber", "ZIP": 84404, "PHONE": "(801) 393-2592", "ONLYSTORE": "true", "LAT": 41.26813001, "LONG": -111.97752739000001 }, "geometry": { "type": "Point", "coordinates": [ -111.97715036139637, 41.267681024272527 ] } },
{ "type": "Feature", "properties": { "STORENUMBE": 22, "TYPE": "Liquor Store", "NAME": null, "ADDRESS": "43 South 100 West", "CITY": "Brigham City", "COUNTY": "Box Elder", "ZIP": 84302, "PHONE": "(801) 723-3701", "ONLYSTORE": "true", "LAT": 41.50941142, "LONG": -112.01718276 }, "geometry": { "type": "Point", "coordinates": [ -112.01700503822811, 41.509379665322321 ] } },
{ "type": "Feature", "properties": { "STORENUMBE": 23, "TYPE": "Liquor Store", "NAME": null, "ADDRESS": "5948 South 1900 West", "CITY": "Roy", "COUNTY": "Weber", "ZIP": 84067, "PHONE": "(801) 825-8755", "ONLYSTORE": "true", "LAT": 41.15599606, "LONG": -112.02587006 }, "geometry": { "type": "Point", "coordinates": [ -112.02560811839255, 41.155378207808923 ] } },
{ "type": "Feature", "properties": { "STORENUMBE": 24, "TYPE": "Liquor Store", "NAME": null, "ADDRESS": "1160 Patterson Street", "CITY": "Ogden", "COUNTY": "Weber", "ZIP": 84403, "PHONE": "(801) 394-1898", "ONLYSTORE": "false", "LAT": 41.20900317, "LONG": -111.9495916 }, "geometry": { "type": "Point", "coordinates": [ -111.94959159927373, 41.209003174335251 ] } },
{ "type": "Feature", "properties": { "STORENUMBE": 25, "TYPE": "Liquor Store", "NAME": null, "ADDRESS": "3255 East 3300 South", "CITY": "Salt Lake City", "COUNTY": "Salt Lake", "ZIP": 84109, "PHONE": "(801) 468-0330", "ONLYSTORE": "false", "LAT": 40.700231, "LONG": -111.801989 }, "geometry": { "type": "Point", "coordinates": [ -111.80190376786636, 40.701273575891705 ] } },
{ "type": "Feature", "properties": { "STORENUMBE": 26, "TYPE": "Liquor Store", "NAME": null, "ADDRESS": "3905 West 5400 South", "CITY": "Taylorsville", "COUNTY": "Salt Lake", "ZIP": 84118, "PHONE": "(801) 968-9826", "ONLYSTORE": "true", "LAT": 40.65278169, "LONG": -111.98429778000001 }, "geometry": { "type": "Point", "coordinates": [ -111.98429780602773, 40.652781645750139 ] } },
{ "type": "Feature", "properties": { "STORENUMBE": 27, "TYPE": "Liquor Store", "NAME": null, "ADDRESS": "55 West 200 South", "CITY": "Moab", "COUNTY": "Grand", "ZIP": 84532, "PHONE": "(435) 259-5314", "ONLYSTORE": "false", "LAT": 38.57008508, "LONG": -109.55185089 }, "geometry": { "type": "Point", "coordinates": [ -109.55172432559776, 38.569900046907577 ] } },
{ "type": "Feature", "properties": { "STORENUMBE": 28, "TYPE": "Liquor Store", "NAME": null, "ADDRESS": "675 East Main Street", "CITY": "Vernal", "COUNTY": "Uintah", "ZIP": 84078, "PHONE": "(435) 789-3750", "ONLYSTORE": "true", "LAT": 40.45634169, "LONG": -109.51599015 }, "geometry": { "type": "Point", "coordinates": [ -109.51599015325003, 40.456341733935226 ] } },
{ "type": "Feature", "properties": { "STORENUMBE": 29, "TYPE": "Liquor Store", "NAME": null, "ADDRESS": "1814 East Murray Holladay Road", "CITY": "Holladay", "COUNTY": "Salt Lake", "ZIP": 84117, "PHONE": "(801) 278-3572", "ONLYSTORE": "true", "LAT": 40.665454, "LONG": -111.8400344 }, "geometry": { "type": "Point", "coordinates": [ -111.84003435141625, 40.66545397299236 ] } },
{ "type": "Feature", "properties": { "STORENUMBE": 30, "TYPE": "Liquor Store", "NAME": null, "ADDRESS": "625 West 600 North", "CITY": "Layton", "COUNTY": "Davis", "ZIP": 84041, "PHONE": "(801) 546-1151", "ONLYSTORE": "true", "LAT": 41.068504, "LONG": -111.9755581 }, "geometry": { "type": "Point", "coordinates": [ -111.97555805361746, 41.06850399767761 ] } },
{ "type": "Feature", "properties": { "STORENUMBE": 31, "TYPE": "Liquor Store", "NAME": null, "ADDRESS": "14445 South Minuteman Drive", "CITY": "Draper", "COUNTY": "Salt Lake", "ZIP": 84020, "PHONE": "(801) 495-2894", "ONLYSTORE": "true", "LAT": 40.48885962, "LONG": -111.89289951000001 }, "geometry": { "type": "Point", "coordinates": [ -111.8928995096487, 40.488859617802333 ] } },
{ "type": "Feature", "properties": { "STORENUMBE": 32, "TYPE": "Liquor Store", "NAME": null, "ADDRESS": "929 West Sunset Blvd", "CITY": "St. George", "COUNTY": "Washington", "ZIP": 84770, "PHONE": "(435) 673-9454", "ONLYSTORE": "false", "LAT": 37.12470325, "LONG": -113.60372617 }, "geometry": { "type": "Point", "coordinates": [ -113.60372617310226, 37.12470325333625 ] } },
{ "type": "Feature", "properties": { "STORENUMBE": 33, "TYPE": "Liquor Store", "NAME": null, "ADDRESS": "1625 South 900 West", "CITY": "Salt Lake City", "COUNTY": "Salt Lake", "ZIP": 84104, "PHONE": "(801) 975-4035", "ONLYSTORE": "false", "LAT": 40.73402416, "LONG": -111.91662735 }, "geometry": { "type": "Point", "coordinates": [ -111.91662734459713, 40.734024156954355 ] } },
{ "type": "Feature", "properties": { "STORENUMBE": 34, "TYPE": "Liquor Store", "NAME": null, "ADDRESS": "1901 Sidewinder Drive", "CITY": "Park City", "COUNTY": "Summit", "ZIP": 84060, "PHONE": "(435) 649-7254", "ONLYSTORE": "false", "LAT": 40.66394712, "LONG": -111.4971593 }, "geometry": { "type": "Point", "coordinates": [ -111.49715929451843, 40.663947117863223 ] } },
{ "type": "Feature", "properties": { "STORENUMBE": 35, "TYPE": "Liquor Store", "NAME": null, "ADDRESS": "255 South 300 East", "CITY": "Salt Lake City", "COUNTY": "Salt Lake", "ZIP": 84111, "PHONE": "(801) 533-6444", "ONLYSTORE": "false", "LAT": 40.76381396, "LONG": -111.88232479 }, "geometry": { "type": "Point", "coordinates": [ -111.88232478941158, 40.763813959476281 ] } },
{ "type": "Feature", "properties": { "STORENUMBE": 36, "TYPE": "Liquor Store", "NAME": null, "ADDRESS": "460 Swede Alley", "CITY": "Park City", "COUNTY": "Summit", "ZIP": 84060, "PHONE": "(435) 649-3293", "ONLYSTORE": "false", "LAT": 40.64402515, "LONG": -111.49516171 }, "geometry": { "type": "Point", "coordinates": [ -111.4951617106646, 40.644025148494613 ] } },
{ "type": "Feature", "properties": { "STORENUMBE": 37, "TYPE": "Liquor Store", "NAME": null, "ADDRESS": "1612 Ute Blvd", "CITY": "Park City", "COUNTY": "Summit", "ZIP": 84098, "PHONE": "(435) 658-0860", "ONLYSTORE": "false", "LAT": 40.72453797, "LONG": -111.54256543 }, "geometry": { "type": "Point", "coordinates": [ -111.5425654286209, 40.724537967613159 ] } },
{ "type": "Feature", "properties": { "STORENUMBE": 38, "TYPE": "Liquor Store", "NAME": null, "ADDRESS": "1550 Snow Creek Drive", "CITY": "Park City", "COUNTY": "Summit", "ZIP": 84060, "PHONE": "(435) 615-8538", "ONLYSTORE": "false", "LAT": 40.66181355, "LONG": -111.5100562 }, "geometry": { "type": "Point", "coordinates": [ -111.51005619983283, 40.661813548658635 ] } },
{ "type": "Feature", "properties": { "STORENUMBE": 39, "TYPE": "Liquor Store", "NAME": null, "ADDRESS": "161 North 900 East", "CITY": "St. George", "COUNTY": "Washington", "ZIP": 84770, "PHONE": "(435) 674-9550", "ONLYSTORE": "false", "LAT": 37.11047316, "LONG": -113.56403668 }, "geometry": { "type": "Point", "coordinates": [ -113.56403668112128, 37.110473161682357 ] } },
{ "type": "Feature", "properties": { "STORENUMBE": 40, "TYPE": "Liquor Store", "NAME": null, "ADDRESS": "13332 South Market Center Drive", "CITY": "Riverton", "COUNTY": "Salt Lake", "ZIP": 84065, "PHONE": "(801) 253-5807", "ONLYSTORE": "true", "LAT": 40.50912551, "LONG": -111.97955707 }, "geometry": { "type": "Point", "coordinates": [ -111.97955706615802, 40.509125513971057 ] } },
{ "type": "Feature", "properties": { "STORENUMBE": 41, "TYPE": "Liquor Store", "NAME": "Wine Store", "ADDRESS": "280 West Harris Ave", "CITY": "Salt Lake City", "COUNTY": "Salt Lake", "ZIP": 84115, "PHONE": "(801) 412-9972", "ONLYSTORE": "false", "LAT": 40.73562629, "LONG": -111.89947845 }, "geometry": { "type": "Point", "coordinates": [ -111.89923724610007, 40.735233416762107 ] } },
{ "type": "Feature", "properties": { "STORENUMBE": 42, "TYPE": "Liquor Store", "NAME": null, "ADDRESS": "202 North Foothills Canyon Rd", "CITY": "Hurricane", "COUNTY": "Washington", "ZIP": 84737, "PHONE": "(435) 627-8622", "ONLYSTORE": "true", "LAT": 37.168579, "LONG": -113.44141 }, "geometry": { "type": "Point", "coordinates": [ -113.4414100275885, 37.168578967722091 ] } },
{ "type": "Feature", "properties": { "STORENUMBE": 43, "TYPE": "Liquor Store", "NAME": null, "ADDRESS": "262 East Gateway Drive", "CITY": "Heber", "COUNTY": "Wasatch", "ZIP": 84032, "PHONE": "(435) 657-3088", "ONLYSTORE": "false", "LAT": 40.4920494, "LONG": -111.4096027 }, "geometry": { "type": "Point", "coordinates": [ -111.40960269486084, 40.492049359863003 ] } },
{ "type": "Feature", "properties": { "STORENUMBE": 44, "TYPE": "Liquor Store", "NAME": null, "ADDRESS": "671 South Pleasant Grove Blvd", "CITY": "Pleasant Grove", "COUNTY": "Utah", "ZIP": 84062, "PHONE": "(801) 785-0228", "ONLYSTORE": "true", "LAT": 40.3558709, "LONG": -111.7632232 }, "geometry": { "type": "Point", "coordinates": [ -111.76322323954254, 40.355870856451524 ] } },
{ "type": "Feature", "properties": { "STORENUMBE": 45, "TYPE": "Liquor Store", "NAME": null, "ADDRESS": "1551 North 1750 West", "CITY": "Springville", "COUNTY": "Utah", "ZIP": 84664, "PHONE": "(801) 489-4807", "ONLYSTORE": "true", "LAT": 40.189267, "LONG": -111.643023 }, "geometry": { "type": "Point", "coordinates": [ -111.64302296610707, 40.189266981974832 ] } },
{ "type": "Feature", "properties": { "STORENUMBE": 101, "TYPE": "Package Agency", "NAME": "Spanish Valley Vineyards", "ADDRESS": "4710 South Zimmerman Ln", "CITY": "Moab", "COUNTY": "Grand", "ZIP": 84532, "PHONE": "(435) 259-8134", "ONLYSTORE": "false", "LAT": 38.5028413, "LONG": -109.4717897 }, "geometry": { "type": "Point", "coordinates": [ -109.47178974729006, 38.502841259106063 ] } },
{ "type": "Feature", "properties": { "STORENUMBE": 102, "TYPE": "Package Agency", "NAME": null, "ADDRESS": "85 South Main St", "CITY": "Filmore", "COUNTY": "Millard", "ZIP": 84631, "PHONE": "(435) 743-5788", "ONLYSTORE": "true", "LAT": 38.96762791, "LONG": -112.32333094000001 }, "geometry": { "type": "Point", "coordinates": [ -112.32333096087206, 38.967627928300629 ] } },
{ "type": "Feature", "properties": { "STORENUMBE": 106, "TYPE": "Package Agency", "NAME": null, "ADDRESS": "60 East Center St", "CITY": "Parowan", "COUNTY": "Iron", "ZIP": 84761, "PHONE": "(435) 477-8802", "ONLYSTORE": "true", "LAT": 37.88591288, "LONG": -112.77386963 }, "geometry": { "type": "Point", "coordinates": [ -112.77386967172467, 37.885912918694821 ] } },
{ "type": "Feature", "properties": { "STORENUMBE": 108, "TYPE": "Package Agency", "NAME": null, "ADDRESS": "348 East Main St", "CITY": "Eureka", "COUNTY": "Juab", "ZIP": 84628, "PHONE": "(435) 433-6323", "ONLYSTORE": "true", "LAT": 39.92816193, "LONG": -112.12238252 }, "geometry": { "type": "Point", "coordinates": [ -112.12238250677117, 39.928161959399723 ] } },
{ "type": "Feature", "properties": { "STORENUMBE": 109, "TYPE": "Package Agency", "NAME": null, "ADDRESS": "22 West Main", "CITY": "Mount Pleasant", "COUNTY": "Sanpete", "ZIP": 84647, "PHONE": "(435) 462-3258", "ONLYSTORE": "true", "LAT": 39.557049, "LONG": -111.4197221 }, "geometry": { "type": "Point", "coordinates": [ -111.41972204938719, 39.557048973619139 ] } },
{ "type": "Feature", "properties": { "STORENUMBE": 110, "TYPE": "Package Agency", "NAME": "Castle Creek Winery", "ADDRESS": "Hwy 128 Mile 14", "CITY": "Moab", "COUNTY": "Grand", "ZIP": 84532, "PHONE": "(435) 259-2002", "ONLYSTORE": "false", "LAT": 38.67184077, "LONG": -109.48219299 }, "geometry": { "type": "Point", "coordinates": [ -109.48219303340277, 38.671840773102339 ] } },
{ "type": "Feature", "properties": { "STORENUMBE": 112, "TYPE": "Package Agency", "NAME": null, "ADDRESS": "168 North Main St", "CITY": "Coalville", "COUNTY": "Summit", "ZIP": 84017, "PHONE": "(435) 336-1002", "ONLYSTORE": "true", "LAT": 40.91994983, "LONG": -111.40100241 }, "geometry": { "type": "Point", "coordinates": [ -111.40100245691191, 40.919949817326327 ] } },
{ "type": "Feature", "properties": { "STORENUMBE": 113, "TYPE": "Package Agency", "NAME": null, "ADDRESS": "86 South Main", "CITY": "Richfield", "COUNTY": "Sevier", "ZIP": 84701, "PHONE": "(435) 896-6091", "ONLYSTORE": "true", "LAT": 38.76705896, "LONG": -112.08506495 }, "geometry": { "type": "Point", "coordinates": [ -112.08506490103396, 38.7670589657641 ] } },
{ "type": "Feature", "properties": { "STORENUMBE": 114, "TYPE": "Package Agency", "NAME": null, "ADDRESS": "68 South Main St", "CITY": "Helper", "COUNTY": "Carbon", "ZIP": 84526, "PHONE": "(435) 472-3589", "ONLYSTORE": "true", "LAT": 39.691016, "LONG": -110.8555012 }, "geometry": { "type": "Point", "coordinates": [ -110.8555012050245, 39.691015990109435 ] } },
{ "type": "Feature", "properties": { "STORENUMBE": 115, "TYPE": "Package Agency", "NAME": "Bullfrog Reosrt & Marina", "ADDRESS": "Highway 276", "CITY": "Bullfrog", "COUNTY": "Kane", "ZIP": 84533, "PHONE": null, "ONLYSTORE": "true", "LAT": 37.516167, "LONG": -110.728 }, "geometry": { "type": "Point", "coordinates": [ -110.72799999138081, 37.516167002085801 ] } },
{ "type": "Feature", "properties": { "STORENUMBE": 120, "TYPE": "Package Agency", "NAME": null, "ADDRESS": "156 West Main", "CITY": "Salina", "COUNTY": "Sevier", "ZIP": 84564, "PHONE": "(435) 529-4148", "ONLYSTORE": "true", "LAT": 38.95751916, "LONG": -111.8625623 }, "geometry": { "type": "Point", "coordinates": [ -111.8625622810636, 38.957519195264787 ] } },
{ "type": "Feature", "properties": { "STORENUMBE": 122, "TYPE": "Package Agency", "NAME": "Switchback Grille & Trading Co.", "ADDRESS": "1149 South Zion Park Blvd", "CITY": "Springdale", "COUNTY": "Washington", "ZIP": 84767, "PHONE": null, "ONLYSTORE": "true", "LAT": 37.184, "LONG": -113.002388 }, "geometry": { "type": "Point", "coordinates": [ -113.00238795733485, 37.183999978957431 ] } },
{ "type": "Feature", "properties": { "STORENUMBE": 123, "TYPE": "Package Agency", "NAME": null, "ADDRESS": "120 East 100 South", "CITY": "Kanab", "COUNTY": "Kane", "ZIP": 84741, "PHONE": "(435) 644-3018", "ONLYSTORE": "true", "LAT": 37.0463147, "LONG": -112.52615154 }, "geometry": { "type": "Point", "coordinates": [ -112.5261515643065, 37.046314736968704 ] } },
{ "type": "Feature", "properties": { "STORENUMBE": 127, "TYPE": "Package Agency", "NAME": "Alta Lodge", "ADDRESS": "10230 East Route 210", "CITY": "Alta", "COUNTY": "Salt Lake", "ZIP": 84092, "PHONE": null, "ONLYSTORE": "true", "LAT": 40.590187, "LONG": -111.636787 }, "geometry": { "type": "Point", "coordinates": [ -111.63678704439602, 40.590187030821014 ] } },
{ "type": "Feature", "properties": { "STORENUMBE": 129, "TYPE": "Package Agency", "NAME": null, "ADDRESS": "233 South Main", "CITY": "Monticello", "COUNTY": "San Juan", "ZIP": 84535, "PHONE": "(435) 587-2810", "ONLYSTORE": "true", "LAT": 37.8692627, "LONG": -109.342908 }, "geometry": { "type": "Point", "coordinates": [ -109.34290802782961, 37.869262706916629 ] } },
{ "type": "Feature", "properties": { "STORENUMBE": 133, "TYPE": "Package Agency", "NAME": null, "ADDRESS": "140 E Main St Suite #2", "CITY": "Tremonton", "COUNTY": "Box Elder", "ZIP": 84337, "PHONE": null, "ONLYSTORE": "true", "LAT": 41.711703, "LONG": -112.163821 }, "geometry": { "type": "Point", "coordinates": [ -112.16382105035032, 41.711703000694534 ] } },
{ "type": "Feature", "properties": { "STORENUMBE": 135, "TYPE": "Package Agency", "NAME": null, "ADDRESS": "291 East Main St", "CITY": "Delta", "COUNTY": "Millard", "ZIP": 84624, "PHONE": "(435) 864-1825", "ONLYSTORE": "true", "LAT": 39.35260116, "LONG": -112.56829977 }, "geometry": { "type": "Point", "coordinates": [ -112.56829971349428, 39.352601159300519 ] } },
{ "type": "Feature", "properties": { "STORENUMBE": 136, "TYPE": "Package Agency", "NAME": "Apple Annie's Country Store", "ADDRESS": "508 North Hwy 143", "CITY": "Brianhead", "COUNTY": "Iron", "ZIP": 84719, "PHONE": null, "ONLYSTORE": "true", "LAT": 37.68300945, "LONG": -112.85420179 }, "geometry": { "type": "Point", "coordinates": [ -112.85420175229221, 37.683009432365942 ] } },
{ "type": "Feature", "properties": { "STORENUMBE": 137, "TYPE": "Package Agency", "NAME": null, "ADDRESS": "38 South Main", "CITY": "Nephi", "COUNTY": "Juab", "ZIP": 84648, "PHONE": "(435) 623-2109", "ONLYSTORE": "true", "LAT": 39.70827616, "LONG": -111.83648586 }, "geometry": { "type": "Point", "coordinates": [ -111.83648591598465, 39.708276120022916 ] } },
{ "type": "Feature", "properties": { "STORENUMBE": 138, "TYPE": "Package Agency", "NAME": null, "ADDRESS": "62 East Main", "CITY": "Castle Dale", "COUNTY": "Emery", "ZIP": 84537, "PHONE": "(435) 381-5474", "ONLYSTORE": "true", "LAT": 39.21153217, "LONG": -111.01670623 }, "geometry": { "type": "Point", "coordinates": [ -111.01670617814816, 39.211532212493324 ] } },
{ "type": "Feature", "properties": { "STORENUMBE": 139, "TYPE": "Package Agency", "NAME": null, "ADDRESS": "710 North Main Street", "CITY": "Beaver", "COUNTY": "Beaver", "ZIP": 84713, "PHONE": "(435) 438-5851", "ONLYSTORE": "true", "LAT": 38.28413226, "LONG": -112.64156431000001 }, "geometry": { "type": "Point", "coordinates": [ -112.64156430749215, 38.284132288462878 ] } },
{ "type": "Feature", "properties": { "STORENUMBE": 140, "TYPE": "Package Agency", "NAME": "Solitude Ski Resort", "ADDRESS": "12000 Big Cottonwood Canyon", "CITY": "Solitude", "COUNTY": "Salt Lake", "ZIP": 84121, "PHONE": null, "ONLYSTORE": "true", "LAT": 40.61890405, "LONG": -111.5907526 }, "geometry": { "type": "Point", "coordinates": [ -111.5907526459456, 40.618904081611774 ] } },
{ "type": "Feature", "properties": { "STORENUMBE": 142, "TYPE": "Package Agency", "NAME": null, "ADDRESS": "123 Market St", "CITY": "Sunnyside", "COUNTY": "Carbon", "ZIP": 84539, "PHONE": "(435) 888-4416", "ONLYSTORE": "true", "LAT": 39.55148108, "LONG": -110.3856039 }, "geometry": { "type": "Point", "coordinates": [ -110.38560393310459, 39.55148108997534 ] } },
{ "type": "Feature", "properties": { "STORENUMBE": 144, "TYPE": "Package Agency", "NAME": null, "ADDRESS": "440 South Main", "CITY": "Milford", "COUNTY": "Beaver", "ZIP": 84751, "PHONE": "(435) 387-5505", "ONLYSTORE": "true", "LAT": 38.39345031, "LONG": -113.01173866000001 }, "geometry": { "type": "Point", "coordinates": [ -113.0117386198382, 38.393450288826941 ] } },
{ "type": "Feature", "properties": { "STORENUMBE": 147, "TYPE": "Package Agency", "NAME": null, "ADDRESS": "7598 South Main", "CITY": "Midvale", "COUNTY": "Salt Lake", "ZIP": 84047, "PHONE": "(801) 255-2311", "ONLYSTORE": "false", "LAT": 40.61326424, "LONG": -111.91050142 }, "geometry": { "type": "Point", "coordinates": [ -111.91050137492317, 40.613264207949044 ] } },
{ "type": "Feature", "properties": { "STORENUMBE": 148, "TYPE": "Package Agency", "NAME": null, "ADDRESS": "48 North Main", "CITY": "Panquitch", "COUNTY": "Garfield", "ZIP": 84759, "PHONE": "(435) 676-8550", "ONLYSTORE": "true", "LAT": 37.8230821, "LONG": -112.43543386 }, "geometry": { "type": "Point", "coordinates": [ -112.43543383815403, 37.823082124777123 ] } },
{ "type": "Feature", "properties": { "STORENUMBE": 150, "TYPE": "Package Agency", "NAME": null, "ADDRESS": "156 West Main Street", "CITY": "Bicknell", "COUNTY": "Wayne", "ZIP": 84715, "PHONE": "(435) 425-3040", "ONLYSTORE": "true", "LAT": 38.34086519, "LONG": -111.54644251000001 }, "geometry": { "type": "Point", "coordinates": [ -111.54644246069614, 38.340865231538608 ] } },
{ "type": "Feature", "properties": { "STORENUMBE": 151, "TYPE": "Package Agency", "NAME": "West Winds Restaurant", "ADDRESS": "545 East Main St", "CITY": "Green River", "COUNTY": "Emery", "ZIP": 84525, "PHONE": null, "ONLYSTORE": "true", "LAT": 38.99527937, "LONG": -110.15724599000001 }, "geometry": { "type": "Point", "coordinates": [ -110.15724599142688, 38.995279408984899 ] } },
{ "type": "Feature", "properties": { "STORENUMBE": 152, "TYPE": "Package Agency", "NAME": null, "ADDRESS": "698 North Main St", "CITY": "Ephraim", "COUNTY": "Sanpete", "ZIP": 84627, "PHONE": "(435) 283-4223", "ONLYSTORE": "true", "LAT": 39.37133139, "LONG": -111.58670783 }, "geometry": { "type": "Point", "coordinates": [ -111.58670786152506, 39.371331354896519 ] } },
{ "type": "Feature", "properties": { "STORENUMBE": 155, "TYPE": "Package Agency", "NAME": "Escalante Outfitters", "ADDRESS": "310 West Main St", "CITY": "Escalante", "COUNTY": "Garfield", "ZIP": 84726, "PHONE": null, "ONLYSTORE": "true", "LAT": 37.77069778, "LONG": -111.6064167 }, "geometry": { "type": "Point", "coordinates": [ -111.60641669923459, 37.770697735797441 ] } },
{ "type": "Feature", "properties": { "STORENUMBE": 156, "TYPE": "Package Agency", "NAME": "Tug's One Stop", "ADDRESS": "14 North State", "CITY": "Marysvale", "COUNTY": "Piute", "ZIP": 84750, "PHONE": null, "ONLYSTORE": "true", "LAT": 38.4513648, "LONG": -112.2318691 }, "geometry": { "type": "Point", "coordinates": [ -112.2318690627601, 38.451364788319928 ] } },
{ "type": "Feature", "properties": { "STORENUMBE": 159, "TYPE": "Package Agency", "NAME": null, "ADDRESS": "28 South 200 East", "CITY": "Roosevelt", "COUNTY": "Duchesne", "ZIP": 84066, "PHONE": "(435) 722-0907", "ONLYSTORE": "true", "LAT": 40.29936325, "LONG": -109.98911977 }, "geometry": { "type": "Point", "coordinates": [ -109.98911982541017, 40.299363262497664 ] } },
{ "type": "Feature", "properties": { "STORENUMBE": 164, "TYPE": "Package Agency", "NAME": "Snowbird Resort", "ADDRESS": "Highway 210", "CITY": "Little Cottonwood Canyon", "COUNTY": "Salt Lake", "ZIP": 84092, "PHONE": null, "ONLYSTORE": "true", "LAT": 40.58267879, "LONG": -111.65421367 }, "geometry": { "type": "Point", "coordinates": [ -111.65421364667618, 40.582678830018828 ] } },
{ "type": "Feature", "properties": { "STORENUMBE": 166, "TYPE": "Package Agency", "NAME": null, "ADDRESS": "83 South 200 East", "CITY": "Kamas", "COUNTY": "Summit", "ZIP": 84036, "PHONE": "(435) 783-2181", "ONLYSTORE": "true", "LAT": 40.6420386, "LONG": -111.27635479 }, "geometry": { "type": "Point", "coordinates": [ -111.27635477526682, 40.642038575866614 ] } },
{ "type": "Feature", "properties": { "STORENUMBE": 169, "TYPE": "Package Agency", "NAME": null, "ADDRESS": "151 East Main St", "CITY": "Duchesne", "COUNTY": "Duchesne", "ZIP": 84021, "PHONE": "(435) 738-2408", "ONLYSTORE": "true", "LAT": 40.16368221, "LONG": -110.39818883 }, "geometry": { "type": "Point", "coordinates": [ -110.39818887698647, 40.163682178625173 ] } },
{ "type": "Feature", "properties": { "STORENUMBE": 171, "TYPE": "Package Agency", "NAME": null, "ADDRESS": "16 West Main", "CITY": "Richmond", "COUNTY": "Cache", "ZIP": 84333, "PHONE": "(435) 258-2047", "ONLYSTORE": "true", "LAT": 41.92254853, "LONG": -111.80916488 }, "geometry": { "type": "Point", "coordinates": [ -111.80916493701832, 41.92254855763511 ] } },
{ "type": "Feature", "properties": { "STORENUMBE": 173, "TYPE": "Package Agency", "NAME": null, "ADDRESS": "26 West Utah Ave", "CITY": "Payson", "COUNTY": "Utah", "ZIP": 84651, "PHONE": "(801) 465-9001", "ONLYSTORE": "true", "LAT": 40.04345197, "LONG": -111.73273802 }, "geometry": { "type": "Point", "coordinates": [ -111.73273800429271, 40.043452000902683 ] } },
{ "type": "Feature", "properties": { "STORENUMBE": 192, "TYPE": "Package Agency", "NAME": "Radisson Inn", "ADDRESS": "2121 Park Ave", "CITY": "Park City", "COUNTY": "Summit", "ZIP": 84060, "PHONE": null, "ONLYSTORE": "false", "LAT": 40.66247541, "LONG": -111.51304364000001 }, "geometry": { "type": "Point", "coordinates": [ -111.51304362873312, 40.662475426533142 ] } },
{ "type": "Feature", "properties": { "STORENUMBE": 198, "TYPE": "Package Agency", "NAME": "Ruby's Inn", "ADDRESS": "Hwy 63", "CITY": "Bryce Canyon City", "COUNTY": "Garfield", "ZIP": 84764, "PHONE": null, "ONLYSTORE": "true", "LAT": 37.67865, "LONG": -112.15548 }, "geometry": { "type": "Point", "coordinates": [ -112.15547996719224, 37.678649984753719 ] } },
{ "type": "Feature", "properties": { "STORENUMBE": 227, "TYPE": "Package Agency", "NAME": "The Market Place & Deli", "ADDRESS": "3000 Canyons Resort Dr", "CITY": "Park City", "COUNTY": "Summit", "ZIP": 84060, "PHONE": null, "ONLYSTORE": "false", "LAT": 40.684608, "LONG": -111.555004 }, "geometry": { "type": "Point", "coordinates": [ -111.55500394482239, 40.684608040905083 ] } },
{ "type": "Feature", "properties": { "STORENUMBE": 274, "TYPE": "Package Agency", "NAME": "Tod's Country Store", "ADDRESS": "Jct Hwy 89 Hwy 14", "CITY": "Alton", "COUNTY": "Kane", "ZIP": 84710, "PHONE": null, "ONLYSTORE": "true", "LAT": 37.48893994, "LONG": -112.51296043000001 }, "geometry": { "type": "Point", "coordinates": [ -112.51296048053906, 37.488939969618094 ] } },
{ "type": "Feature", "properties": { "STORENUMBE": 275, "TYPE": "Package Agency", "NAME": "Pivotal Promontory", "ADDRESS": "8417 North Ranch Club Trail", "CITY": "Park City", "COUNTY": "Summit", "ZIP": 84098, "PHONE": null, "ONLYSTORE": "false", "LAT": 40.74667174, "LONG": -111.44803762 }, "geometry": { "type": "Point", "coordinates": [ -111.44803764398925, 40.746671720676602 ] } },
{ "type": "Feature", "properties": { "STORENUMBE": 276, "TYPE": "Package Agency", "NAME": "High West Distillery", "ADDRESS": "3555 West 1500 South", "CITY": "Salt Lake City", "COUNTY": "Salt Lake", "ZIP": 84104, "PHONE": null, "ONLYSTORE": "false", "LAT": 40.73842923, "LONG": -111.97649717 }, "geometry": { "type": "Point", "coordinates": [ -111.97649722795458, 40.73842924476758 ] } },
{ "type": "Feature", "properties": { "STORENUMBE": 277, "TYPE": "Package Agency", "NAME": "Squatters Brewery", "ADDRESS": "147 West Broadway", "CITY": "Salt Lake City", "COUNTY": "Salt Lake", "ZIP": 84101, "PHONE": null, "ONLYSTORE": "false", "LAT": 40.762572, "LONG": -111.8954022 }, "geometry": { "type": "Point", "coordinates": [ -111.89540215735484, 40.762572042052518 ] } },
{ "type": "Feature", "properties": { "STORENUMBE": 278, "TYPE": "Package Agency", "NAME": "Utah Brewers Cooperative", "ADDRESS": "1763 South 300 West", "CITY": "Salt Lake City", "COUNTY": "Salt Lake", "ZIP": 84115, "PHONE": null, "ONLYSTORE": "false", "LAT": 40.73214506, "LONG": -111.89934611 }, "geometry": { "type": "Point", "coordinates": [ -111.89934606189414, 40.732145089346403 ] } },
{ "type": "Feature", "properties": { "STORENUMBE": 280, "TYPE": "Package Agency", "NAME": "River's Edge Resort", "ADDRESS": "7000 North Old Hwy 40", "CITY": "Heber", "COUNTY": "Wasatch", "ZIP": 84032, "PHONE": null, "ONLYSTORE": "false", "LAT": 40.593034, "LONG": -111.427417 }, "geometry": { "type": "Point", "coordinates": [ -111.42741695157838, 40.593033990485822 ] } },
{ "type": "Feature", "properties": { "STORENUMBE": 281, "TYPE": "Package Agency", "NAME": "Red Rock Brewing Co.", "ADDRESS": "254 South 200 West", "CITY": "Salt Lake City", "COUNTY": "Salt Lake", "ZIP": 84101, "PHONE": null, "ONLYSTORE": "false", "LAT": 40.7636521, "LONG": -111.8970851 }, "geometry": { "type": "Point", "coordinates": [ -111.89708508101779, 40.763652056634072 ] } },
{ "type": "Feature", "properties": { "STORENUMBE": 283, "TYPE": "Package Agency", "NAME": "Moab Brewery", "ADDRESS": "686 South Main", "CITY": "Moab", "COUNTY": "Grand", "ZIP": 84532, "PHONE": null, "ONLYSTORE": "false", "LAT": 38.56328101, "LONG": -109.54975113 }, "geometry": { "type": "Point", "coordinates": [ -109.54975110205132, 38.563280995321456 ] } },
{ "type": "Feature", "properties": { "STORENUMBE": 286, "TYPE": "Package Agency", "NAME": "Amangiri Resort", "ADDRESS": "1 Kayenta Rd", "CITY": "Canyon Point", "COUNTY": "Kane", "ZIP": 84741, "PHONE": null, "ONLYSTORE": "true", "LAT": 37.01434154, "LONG": -111.61103554 }, "geometry": { "type": "Point", "coordinates": [ -111.61103550721363, 37.014341503085063 ] } },
{ "type": "Feature", "properties": { "STORENUMBE": 287, "TYPE": "Package Agency", "NAME": "High West Distillery", "ADDRESS": "703 Park Avenue", "CITY": "Park City", "COUNTY": "Summit", "ZIP": 84098, "PHONE": null, "ONLYSTORE": "false", "LAT": 40.64668489, "LONG": -111.49819493 }, "geometry": { "type": "Point", "coordinates": [ -111.49819498730646, 40.646684905970687 ] } },
{ "type": "Feature", "properties": { "STORENUMBE": 290, "TYPE": "Package Agency", "NAME": "Hopper's Grill & Brewing Co", "ADDRESS": "890 East Fort Union Blvd", "CITY": "Midvale", "COUNTY": "Salt Lake", "ZIP": 84047, "PHONE": null, "ONLYSTORE": "false", "LAT": 40.62178689, "LONG": -111.86633348 }, "geometry": { "type": "Point", "coordinates": [ -111.86633344637747, 40.621786916349485 ] } },
{ "type": "Feature", "properties": { "STORENUMBE": 291, "TYPE": "Package Agency", "NAME": "Uinta Brewing Co.", "ADDRESS": "1722 South Fremont Drive", "CITY": "Salt Lake City", "COUNTY": "Salt Lake", "ZIP": 84104, "PHONE": null, "ONLYSTORE": "false", "LAT": 40.732632, "LONG": -111.954091 }, "geometry": { "type": "Point", "coordinates": [ -111.95409105541556, 40.732631961182953 ] } },
{ "type": "Feature", "properties": { "STORENUMBE": 292, "TYPE": "Package Agency", "NAME": "Wasatch Brew Pub", "ADDRESS": "250 Main", "CITY": "Park City", "COUNTY": "Summit", "ZIP": 84060, "PHONE": null, "ONLYSTORE": "false", "LAT": 40.6417794, "LONG": -111.4946557 }, "geometry": { "type": "Point", "coordinates": [ -111.49465573300849, 40.641779364358079 ] } },
{ "type": "Feature", "properties": { "STORENUMBE": 294, "TYPE": "Package Agency", "NAME": "Epic Brewing Co.", "ADDRESS": "825 South State", "CITY": "Salt Lake City", "COUNTY": "Salt Lake", "ZIP": 84111, "PHONE": null, "ONLYSTORE": "false", "LAT": 40.751162, "LONG": -111.887675 }, "geometry": { "type": "Point", "coordinates": [ -111.88767502329083, 40.751161989417248 ] } },
{ "type": "Feature", "properties": { "STORENUMBE": 306, "TYPE": "Package Agency", "NAME": null, "ADDRESS": "95 North Main St", "CITY": "Centerfield", "COUNTY": "Sanpete", "ZIP": 84622, "PHONE": "(435) 528-3739", "ONLYSTORE": "true", "LAT": 39.128207, "LONG": -111.819215 }, "geometry": { "type": "Point", "coordinates": [ -111.81921494603115, 39.128206972296859 ] } },
{ "type": "Feature", "properties": { "STORENUMBE": 15, "TYPE": "Liquor Store", "NAME": "Cottonwood Heights", "ADDRESS": "1863 E Fort Union Blvd", "CITY": "Cottonwood Heights", "COUNTY": "Salt Lake", "ZIP": 84121, "PHONE": "(801) 942-6234", "ONLYSTORE": "false", "LAT": 40.6244709, "LONG": -111.8367578 }, "geometry": { "type": "Point", "coordinates": [ -111.83806146558835, 40.625213622637766 ] } },
{ "type": "Feature", "properties": { "STORENUMBE": 131, "TYPE": "Package Agency", "NAME": "Flaming Gorge Recreation - Delta Plan One", "ADDRESS": "1050 S Blvd", "CITY": "Dutch John", "COUNTY": "Daggett", "ZIP": 84023, "PHONE": null, "ONLYSTORE": null, "LAT": 0.0, "LONG": 0.0 }, "geometry": { "type": "Point", "coordinates": [ -109.40400704621008, 40.932666620993032 ] } },
{ "type": "Feature", "properties": { "STORENUMBE": 0, "TYPE": "Liquor Store", "NAME": null, "ADDRESS": "5675 West 6200 S", "CITY": "West Valley City", "COUNTY": "Salt Lake", "ZIP": 0, "PHONE": null, "ONLYSTORE": "true", "LAT": 0.0, "LONG": 0.0 }, "geometry": { "type": "Point", "coordinates": [ -112.02675052747486, 40.637629055552274 ] } },
{ "type": "Feature", "properties": { "STORENUMBE": 364, "TYPE": "Package Agency", "NAME": "2 Row Brewing Inc.", "ADDRESS": "6856 South Cottonwood St", "CITY": "Midvale", "COUNTY": "Salt Lake", "ZIP": 84047, "PHONE": "(801) 987-8663", "ONLYSTORE": "false", "LAT": 40.625535, "LONG": -111.899887 }, "geometry": { "type": "Point", "coordinates": [ -111.89991714229242, 40.625509133175754 ] } },
{ "type": "Feature", "properties": { "STORENUMBE": 369, "TYPE": "Package Agency", "NAME": null, "ADDRESS": "3900 North Wolf Creek Dr", "CITY": "Eden", "COUNTY": "Weber", "ZIP": 84310, "PHONE": "(801) 648-7868", "ONLYSTORE": "false", "LAT": 41.329926, "LONG": -111.825244 }, "geometry": { "type": "Point", "coordinates": [ -111.82514285913746, 41.329872752396568 ] } }
]
}
